$GNRMC,143616.53,A,3021.87629202,N,9729.95239102,W,2.75,344.8,070319,,,*15
$GNGGA,143616.53,3021.87629202,N,9729.95239102,W,1,10,0.9,161.95,M,46.9,M,,*68
$GNRMC,143617.53,A,3021.87772398,N,9729.95284198,W,2.75,344.8,070319,,,*1C
$GNGGA,143617.53,3021.87772398,N,9729.95284198,W,1,10,0.9,161.97,M,46.9,M,,*63
$GNRMC,143618.53,A,3021.87915600,N,9729.95329402,W,2.75,344.8,070319,,,*18
$GNGGA,143618.53,3021.87915600,N,9729.95329402,W,1,10,0.9,161.98,M,46.9,M,,*68
$GNRMC,143619.53,A,3021.88058802,N,9729.95374498,W,2.75,344.8,070319,,,*11
$GNGGA,143619.53,3021.88058802,N,9729.95374498,W,1,10,0.9,162.00,M,46.9,M,,*63
$GNRMC,143620.53,A,3021.88202100,N,9729.95419600,W,2.75,344.8,070319,,,*12
$GNGGA,143620.53,3021.88202100,N,9729.95419600,W,1,10,0.9,162.01,M,46.9,M,,*61
$GNRMC,143621.53,A,3021.88345302,N,9729.95464702,W,2.75,344.8,070319,,,*18
$GNGGA,143621.53,3021.88345302,N,9729.95464702,W,1,10,0.9,162.02,M,46.9,M,,*68
$GNRMC,143622.53,A,3021.88488498,N,9729.95509798,W,2.75,344.8,070319,,,*10
$GNGGA,143622.53,3021.88488498,N,9729.95509798,W,1,10,0.9,162.04,M,46.9,M,,*66
$GNRMC,143623.53,A,3021.88631700,N,9729.95554900,W,2.75,344.8,070319,,,*14
$GNGGA,143623.53,3021.88631700,N,9729.95554900,W,1,10,0.9,162.05,M,46.9,M,,*63
$GNRMC,143624.53,A,3021.88774902,N,9729.95600098,W,2.75,344.8,070319,,,*15
$GNGGA,143624.53,3021.88774902,N,9729.95600098,W,1,10,0.9,162.07,M,46.9,M,,*60
$GNRMC,143625.53,A,3021.88918098,N,9729.95645200,W,2.75,344.8,070319,,,*18
$GNGGA,143625.53,3021.88918098,N,9729.95645200,W,1,10,0.9,162.08,M,46.9,M,,*62
$GNRMC,143626.53,A,3021.89061300,N,9729.95690302,W,2.75,344.8,070319,,,*14
$GNGGA,143626.53,3021.89061300,N,9729.95690302,W,1,10,0.9,162.10,M,46.9,M,,*67
$GNRMC,143627.53,A,3021.89204502,N,9729.95735398,W,2.75,344.8,070319,,,*1D
$GNGGA,143627.53,3021.89204502,N,9729.95735398,W,1,10,0.9,162.11,M,46.9,M,,*6F
$GNRMC,143628.53,A,3021.89347698,N,9729.95780500,W,2.75,344.8,070319,,,*1D
$GNGGA,143628.53,3021.89347698,N,9729.95780500,W,1,10,0.9,162.12,M,46.9,M,,*6C
$GNRMC,143629.53,A,3021.89491002,N,9729.95825698,W,2.76,344.8,070319,,,*14
$GNGGA,143629.53,3021.89491002,N,9729.95825698,W,1,10,0.9,162.14,M,46.9,M,,*60
$GNRMC,143630.53,A,3021.89634198,N,9729.95870800,W,2.75,344.8,070319,,,*1F
$GNGGA,143630.53,3021.89634198,N,9729.95870800,W,1,10,0.9,162.15,M,46.9,M,,*69
$GNRMC,143631.53,A,3021.89777400,N,9729.95915902,W,2.75,344.8,070319,,,*1D
$GNGGA,143631.53,3021.89777400,N,9729.95915902,W,1,10,0.9,162.17,M,46.9,M,,*69
$GNRMC,143632.53,A,3021.89920602,N,9729.95960998,W,2.75,344.8,070319,,,*13
$GNGGA,143632.53,3021.89920602,N,9729.95960998,W,1,10,0.9,162.18,M,46.9,M,,*68
$GNRMC,143633.53,A,3021.90063798,N,9729.96006100,W,2.75,344.8,070319,,,*15
$GNGGA,143633.53,3021.90063798,N,9729.96006100,W,1,10,0.9,162.20,M,46.9,M,,*65
$GNRMC,143634.53,A,3021.90207000,N,9729.96051202,W,2.75,344.8,070319,,,*17
$GNGGA,143634.53,3021.90207000,N,9729.96051202,W,1,10,0.9,162.21,M,46.9,M,,*66
$GNRMC,143635.53,A,3021.90350202,N,9729.96096400,W,2.75,344.8,070319,,,*1A
$GNGGA,143635.53,3021.90350202,N,9729.96096400,W,1,10,0.9,162.23,M,46.9,M,,*69
$GNRMC,143636.53,A,3021.90493398,N,9729.96141502,W,2.75,344.8,070319,,,*1B
$GNGGA,143636.53,3021.90493398,N,9729.96141502,W,1,10,0.9,162.24,M,46.9,M,,*6F
$GNRMC,143637.53,A,3021.90636600,N,9729.96186598,W,2.75,344.8,070319,,,*1B
$GNGGA,143637.53,3021.90636600,N,9729.96186598,W,1,10,0.9,162.25,M,46.9,M,,*6E
$GNRMC,143638.53,A,3021.90779898,N,9729.96231700,W,2.75,344.8,070319,,,*1D
$GNGGA,143638.53,3021.90779898,N,9729.96231700,W,1,10,0.9,162.27,M,46.9,M,,*6A
$GNRMC,143639.53,A,3021.90923100,N,9729.96276802,W,2.75,344.8,070319,,,*1B
$GNGGA,143639.53,3021.90923100,N,9729.96276802,W,1,10,0.9,162.28,M,46.9,M,,*63
$GNRMC,143640.53,A,3021.91066302,N,9729.96321898,W,2.75,344.8,070319,,,*1C
$GNGGA,143640.53,3021.91066302,N,9729.96321898,W,1,10,0.9,162.29,M,46.9,M,,*65
$GNRMC,143641.53,A,3021.91209498,N,9729.96367102,W,2.75,344.8,070319,,,*1A
$GNGGA,143641.53,3021.91209498,N,9729.96367102,W,1,10,0.9,162.30,M,46.9,M,,*6B
$GNRMC,143642.53,A,3021.91352700,N,9729.96412198,W,2.75,344.8,070319,,,*12
$GNGGA,143642.53,3021.91352700,N,9729.96412198,W,1,10,0.9,162.31,M,46.9,M,,*62
$GNRMC,143643.53,A,3021.91495902,N,9729.96457300,W,2.75,344.8,070319,,,*11
$GNGGA,143643.53,3021.91495902,N,9729.96457300,W,1,10,0.9,162.32,M,46.9,M,,*62
$GNRMC,143644.53,A,3021.91639098,N,9729.96502402,W,2.75,344.8,070319,,,*1C
$GNGGA,143644.53,3021.91639098,N,9729.96502402,W,1,10,0.9,162.33,M,46.9,M,,*6E
$GNRMC,143645.53,A,3021.91782300,N,9729.96547498,W,2.75,344.8,070319,,,*1C
$GNGGA,143645.53,3021.91782300,N,9729.96547498,W,1,10,0.9,162.34,M,46.9,M,,*69
$GNRMC,143646.53,A,3021.91925502,N,9729.96592702,W,2.75,344.8,070319,,,*10
$GNGGA,143646.53,3021.91925502,N,9729.96592702,W,1,10,0.9,162.35,M,46.9,M,,*64
$GNRMC,143647.53,A,3021.92068800,N,9729.96637798,W,2.75,344.8,070319,,,*12
$GNGGA,143647.53,3021.92068800,N,9729.96637798,W,1,10,0.9,162.36,M,46.9,M,,*65
$GNRMC,143648.53,A,3021.92212002,N,9729.96682900,W,2.75,344.8,070319,,,*19
$GNGGA,143648.53,3021.92212002,N,9729.96682900,W,1,10,0.9,162.37,M,46.9,M,,*6F
$GNRMC,143649.53,A,3021.92355198,N,9729.96728002,W,2.75,344.8,070319,,,*12
$GNGGA,143649.53,3021.92355198,N,9729.96728002,W,1,10,0.9,162.39,M,46.9,M,,*6A
$GNRMC,143650.53,A,3021.92498400,N,9729.96773098,W,2.75,344.8,070319,,,*15
$GNGGA,143650.53,3021.92498400,N,9729.96773098,W,1,10,0.9,162.40,M,46.9,M,,*63
$GNRMC,143651.53,A,3021.92641602,N,9729.96818200,W,2.75,344.8,070319,,,*13
$GNGGA,143651.53,3021.92641602,N,9729.96818200,W,1,10,0.9,162.41,M,46.9,M,,*64
$GNRMC,143652.53,A,3021.92784798,N,9729.96863398,W,2.75,344.8,070319,,,*16
$GNGGA,143652.53,3021.92784798,N,9729.96863398,W,1,10,0.9,162.42,M,46.9,M,,*62
$GNRMC,143653.53,A,3021.92928000,N,9729.96908500,W,2.75,344.8,070319,,,*12
$GNGGA,143653.53,3021.92928000,N,9729.96908500,W,1,10,0.9,162.43,M,46.9,M,,*67
$GNRMC,143654.53,A,3021.93071202,N,9729.96953602,W,2.75,344.8,070319,,,*1E
$GNGGA,143654.53,3021.93071202,N,9729.96953602,W,1,10,0.9,162.43,M,46.9,M,,*6B
$GNRMC,143655.53,A,3021.93214398,N,9729.96998698,W,2.75,344.8,070319,,,*18
$GNGGA,143655.53,3021.93214398,N,9729.96998698,W,1,10,0.9,162.44,M,46.9,M,,*6A
$GNRMC,143656.53,A,3021.93357702,N,9729.97043800,W,2.76,344.8,070319,,,*18
$GNGGA,143656.53,3021.93357702,N,9729.97043800,W,1,10,0.9,162.45,M,46.9,M,,*68
$GNRMC,143657.53,A,3021.93500898,N,9729.97088998,W,2.75,344.8,070319,,,*15
$GNGGA,143657.53,3021.93500898,N,9729.97088998,W,1,10,0.9,162.46,M,46.9,M,,*65
$GNRMC,143658.53,A,3021.93644100,N,9729.97134100,W,2.75,344.8,070319,,,*1E
$GNGGA,143658.53,3021.93644100,N,9729.97134100,W,1,10,0.9,162.47,M,46.9,M,,*6F
$GNRMC,143659.53,A,3021.93787302,N,9729.97179202,W,2.75,344.8,070319,,,*19
$GNGGA,143659.53,3021.93787302,N,9729.97179202,W,1,10,0.9,162.48,M,46.9,M,,*67
$GNRMC,143700.53,A,3021.93930498,N,9729.97224298,W,2.75,344.8,070319,,,*1A
$GNGGA,143700.53,3021.93930498,N,9729.97224298,W,1,10,0.9,162.49,M,46.9,M,,*65
$GNRMC,143701.53,A,3021.94073700,N,9729.97269400,W,2.75,344.8,070319,,,*1E
$GNGGA,143701.53,3021.94073700,N,9729.97269400,W,1,10,0.9,162.49,M,46.9,M,,*61
$GNRMC,143702.53,A,3021.94216902,N,9729.97314502,W,2.75,344.8,070319,,,*18
$GNGGA,143702.53,3021.94216902,N,9729.97314502,W,1,10,0.9,162.50,M,46.9,M,,*6F
$GNRMC,143703.53,A,3021.94360098,N,9729.97359700,W,2.75,344.8,070319,,,*1A
$GNGGA,143703.53,3021.94360098,N,9729.97359700,W,1,10,0.9,162.51,M,46.9,M,,*6C
$GNRMC,143704.53,A,3021.94503300,N,9729.97404802,W,2.75,344.8,070319,,,*1E
$GNGGA,143704.53,3021.94503300,N,9729.97404802,W,1,10,0.9,162.52,M,46.9,M,,*6B
$GNRMC,143705.53,A,3021.94646598,N,9729.97449898,W,2.75,344.8,070319,,,*10
$GNGGA,143705.53,3021.94646598,N,9729.97449898,W,1,10,0.9,162.53,M,46.9,M,,*64
$GNRMC,143706.53,A,3021.94789800,N,9729.97495000,W,2.75,344.8,070319,,,*15
$GNGGA,143706.53,3021.94789800,N,9729.97495000,W,1,10,0.9,162.54,M,46.9,M,,*66
$GNRMC,143707.53,A,3021.94933002,N,9729.97540102,W,2.75,344.8,070319,,,*1B
$GNGGA,143707.53,3021.94933002,N,9729.97540102,W,1,10,0.9,162.55,M,46.9,M,,*69
$GNRMC,143708.53,A,3021.95076198,N,9729.97585198,W,2.75,344.8,070319,,,*15
$GNGGA,143708.53,3021.95076198,N,9729.97585198,W,1,10,0.9,162.56,M,46.9,M,,*64
$GNRMC,143709.53,A,3021.95219400,N,9729.97630402,W,2.75,344.8,070319,,,*10
$GNGGA,143709.53,3021.95219400,N,9729.97630402,W,1,10,0.9,162.57,M,46.9,M,,*60
$GNRMC,143710.53,A,3021.95362602,N,9729.97675498,W,2.75,344.8,070319,,,*17
$GNGGA,143710.53,3021.95362602,N,9729.97675498,W,1,10,0.9,162.58,M,46.9,M,,*68
$GNRMC,143711.53,A,3021.95505798,N,9729.97720600,W,2.75,344.8,070319,,,*11
$GNGGA,143711.53,3021.95505798,N,9729.97720600,W,1,10,0.9,162.59,M,46.9,M,,*6F
$GNRMC,143712.53,A,3021.95649000,N,9729.97765702,W,2.75,344.8,070319,,,*1D
$GNGGA,143712.53,3021.95649000,N,9729.97765702,W,1,10,0.9,162.60,M,46.9,M,,*69
$GNRMC,143713.53,A,3021.95792202,N,9729.97810798,W,2.75,344.8,070319,,,*15
$GNGGA,143713.53,3021.95792202,N,9729.97810798,W,1,10,0.9,162.62,M,46.9,M,,*63
$GNRMC,143714.53,A,3021.95935500,N,9729.97856002,W,2.76,344.8,070319,,,*11
$GNGGA,143714.53,3021.95935500,N,9729.97856002,W,1,10,0.9,162.63,M,46.9,M,,*65
$GNRMC,143715.53,A,3021.96078702,N,9729.97901098,W,2.75,344.8,070319,,,*10
$GNGGA,143715.53,3021.96078702,N,9729.97901098,W,1,10,0.9,162.64,M,46.9,M,,*60
$GNRMC,143716.53,A,3021.96221898,N,9729.97946200,W,2.75,344.8,070319,,,*11
$GNGGA,143716.53,3021.96221898,N,9729.97946200,W,1,10,0.9,162.66,M,46.9,M,,*63
$GNRMC,143717.53,A,3021.96365100,N,9729.97991302,W,2.75,344.8,070319,,,*10
$GNGGA,143717.53,3021.96365100,N,9729.97991302,W,1,10,0.9,162.67,M,46.9,M,,*63
$GNRMC,143718.53,A,3021.96508302,N,9729.98036398,W,2.75,344.8,070319,,,*1A
$GNGGA,143718.53,3021.96508302,N,9729.98036398,W,1,10,0.9,162.69,M,46.9,M,,*67
$GNRMC,143719.53,A,3021.96651498,N,9729.98081500,W,2.75,344.8,070319,,,*1B
$GNGGA,143719.53,3021.96651498,N,9729.98081500,W,1,10,0.9,162.70,M,46.9,M,,*6E
$GNRMC,143720.53,A,3021.96794700,N,9729.98126698,W,2.75,344.8,070319,,,*15
$GNGGA,143720.53,3021.96794700,N,9729.98126698,W,1,10,0.9,162.72,M,46.9,M,,*62
$GNRMC,143721.53,A,3021.96937902,N,9729.98171800,W,2.75,344.8,070319,,,*12
$GNGGA,143721.53,3021.96937902,N,9729.98171800,W,1,10,0.9,162.73,M,46.9,M,,*64
$GNRMC,143722.53,A,3021.97081098,N,9729.98216902,W,2.75,344.8,070319,,,*1F
$GNGGA,143722.53,3021.97081098,N,9729.98216902,W,1,10,0.9,162.75,M,46.9,M,,*6F
$GNRMC,143723.53,A,3021.97224402,N,9729.98261998,W,2.75,344.8,070319,,,*17
$GNGGA,143723.53,3021.97224402,N,9729.98261998,W,1,10,0.9,162.77,M,46.9,M,,*65
$GNRMC,143724.53,A,3021.97367598,N,9729.98307100,W,2.75,344.8,070319,,,*1C
$GNGGA,143724.53,3021.97367598,N,9729.98307100,W,1,10,0.9,162.78,M,46.9,M,,*61
$GNRMC,143725.53,A,3021.97510800,N,9729.98352298,W,2.75,344.8,070319,,,*15
$GNGGA,143725.53,3021.97510800,N,9729.98352298,W,1,10,0.9,162.80,M,46.9,M,,*6F
$GNRMC,143726.53,A,3021.97654002,N,9729.98397400,W,2.75,344.8,070319,,,*11
$GNGGA,143726.53,3021.97654002,N,9729.98397400,W,1,10,0.9,162.81,M,46.9,M,,*6A
$GNRMC,143727.53,A,3021.97797198,N,9729.98442502,W,2.75,344.8,070319,,,*10
$GNGGA,143727.53,3021.97797198,N,9729.98442502,W,1,10,0.9,162.82,M,46.9,M,,*68
$GNRMC,143728.53,A,3021.97940400,N,9729.98487598,W,2.75,344.8,070319,,,*15
$GNGGA,143728.53,3021.97940400,N,9729.98487598,W,1,10,0.9,162.83,M,46.9,M,,*6C
$GNRMC,143729.53,A,3021.98083602,N,9729.98532700,W,2.75,344.8,070319,,,*11
$GNGGA,143729.53,3021.98083602,N,9729.98532700,W,1,10,0.9,162.85,M,46.9,M,,*6E
$GNRMC,143730.53,A,3021.98226798,N,9729.98577802,W,2.75,344.8,070319,,,*1A
$GNGGA,143730.53,3021.98226798,N,9729.98577802,W,1,10,0.9,162.86,M,46.9,M,,*66
$GNRMC,143731.53,A,3021.98370102,N,9729.98623000,W,2.76,344.8,070319,,,*17
$GNGGA,143731.53,3021.98370102,N,9729.98623000,W,1,10,0.9,162.87,M,46.9,M,,*69
$GNRMC,143732.53,A,3021.98513298,N,9729.98668102,W,2.75,344.8,070319,,,*18
$GNGGA,143732.53,3021.98513298,N,9729.98668102,W,1,10,0.9,162.88,M,46.9,M,,*6A
$GNRMC,143733.53,A,3021.98656500,N,9729.98713198,W,2.75,344.8,070319,,,*13
$GNGGA,143733.53,3021.98656500,N,9729.98713198,W,1,10,0.9,162.90,M,46.9,M,,*68
$GNRMC,143734.53,A,3021.98799702,N,9729.98758300,W,2.75,344.8,070319,,,*1A
$GNGGA,143734.53,3021.98799702,N,9729.98758300,W,1,10,0.9,162.91,M,46.9,M,,*60
$GNRMC,143735.53,A,3021.98942898,N,9729.98803402,W,2.75,344.8,070319,,,*1B
$GNGGA,143735.53,3021.98942898,N,9729.98803402,W,1,10,0.9,162.92,M,46.9,M,,*62
$GNRMC,143736.53,A,3021.99086100,N,9729.98848498,W,2.75,344.8,070319,,,*1C
$GNGGA,143736.53,3021.99086100,N,9729.98848498,W,1,10,0.9,162.94,M,46.9,M,,*63
$GNRMC,143737.53,A,3021.99229302,N,9729.98893702,W,2.75,344.8,070319,,,*1C
$GNGGA,143737.53,3021.99229302,N,9729.98893702,W,1,10,0.9,162.95,M,46.9,M,,*62
$GNRMC,143738.53,A,3021.99372498,N,9729.98938798,W,2.75,344.8,070319,,,*1B
$GNGGA,143738.53,3021.99372498,N,9729.98938798,W,1,10,0.9,162.97,M,46.9,M,,*67
$GNRMC,143739.53,A,3021.99515700,N,9729.98983900,W,2.75,344.8,070319,,,*10
$GNGGA,143739.53,3021.99515700,N,9729.98983900,W,1,10,0.9,162.99,M,46.9,M,,*62
$GNRMC,143740.53,A,3021.99658998,N,9729.99029002,W,2.75,344.8,070319,,,*18
$GNGGA,143740.53,3021.99658998,N,9729.99029002,W,1,10,0.9,163.00,M,46.9,M,,*6B
$GNRMC,143741.53,A,3021.99802200,N,9729.99074098,W,2.75,344.8,070319,,,*19
$GNGGA,143741.53,3021.99802200,N,9729.99074098,W,1,10,0.9,163.02,M,46.9,M,,*68
$GNRMC,143742.53,A,3021.99945402,N,9729.99119302,W,2.75,344.8,070319,,,*16
$GNGGA,143742.53,3021.99945402,N,9729.99119302,W,1,10,0.9,163.04,M,46.9,M,,*61
$GNRMC,143743.53,A,3022.00088598,N,9729.99164398,W,2.75,344.8,070319,,,*17
$GNGGA,143743.53,3022.00088598,N,9729.99164398,W,1,10,0.9,163.06,M,46.9,M,,*62
$GNRMC,143744.53,A,3022.00231800,N,9729.99209500,W,2.75,344.8,070319,,,*13
$GNGGA,143744.53,3022.00231800,N,9729.99209500,W,1,10,0.9,163.07,M,46.9,M,,*67
$GNRMC,143745.53,A,3022.00375002,N,9729.99254602,W,2.75,344.8,070319,,,*10
$GNGGA,143745.53,3022.00375002,N,9729.99254602,W,1,10,0.9,163.09,M,46.9,M,,*6A
$GNRMC,143746.53,A,3022.00518198,N,9729.99299698,W,2.75,344.8,070319,,,*1E
$GNGGA,143746.53,3022.00518198,N,9729.99299698,W,1,10,0.9,163.11,M,46.9,M,,*6D
$GNRMC,143747.53,A,3022.00661400,N,9729.99344800,W,2.75,344.8,070319,,,*18
$GNGGA,143747.53,3022.00661400,N,9729.99344800,W,1,10,0.9,163.13,M,46.9,M,,*69
$GNRMC,143748.53,A,3022.00804602,N,9729.99389998,W,2.75,344.8,070319,,,*1B
$GNGGA,143748.53,3022.00804602,N,9729.99389998,W,1,10,0.9,163.15,M,46.9,M,,*6C
$GNRMC,143749.53,A,3022.00947900,N,9729.99435100,W,2.75,344.8,070319,,,*18
$GNGGA,143749.53,3022.00947900,N,9729.99435100,W,1,10,0.9,163.18,M,46.9,M,,*62
$GNRMC,143750.53,A,3022.01091102,N,9729.99480202,W,2.75,344.8,070319,,,*16
$GNGGA,143750.53,3022.01091102,N,9729.99480202,W,1,10,0.9,163.21,M,46.9,M,,*66
$GNRMC,143751.53,A,3022.01234298,N,9729.99525298,W,2.75,344.8,070319,,,*17
$GNGGA,143751.53,3022.01234298,N,9729.99525298,W,1,10,0.9,163.25,M,46.9,M,,*63
$GNRMC,143752.53,A,3022.01377500,N,9729.99570400,W,2.75,344.8,070319,,,*13
$GNGGA,143752.53,3022.01377500,N,9729.99570400,W,1,10,0.9,163.28,M,46.9,M,,*6A
$GNRMC,143753.53,A,3022.01520702,N,9729.99615598,W,2.75,344.8,070319,,,*16
$GNGGA,143753.53,3022.01520702,N,9729.99615598,W,1,10,0.9,163.31,M,46.9,M,,*67
$GNRMC,143754.53,A,3022.01663898,N,9729.99660700,W,2.75,344.8,070319,,,*18
$GNGGA,143754.53,3022.01663898,N,9729.99660700,W,1,10,0.9,163.35,M,46.9,M,,*6D
$GNRMC,143755.53,A,3022.01807100,N,9729.99705802,W,2.75,344.8,070319,,,*12
$GNGGA,143755.53,3022.01807100,N,9729.99705802,W,1,10,0.9,163.38,M,46.9,M,,*6A
$GNRMC,143756.53,A,3022.01950302,N,9729.99750898,W,2.75,344.8,070319,,,*11
$GNGGA,143756.53,3022.01950302,N,9729.99750898,W,1,10,0.9,163.42,M,46.9,M,,*64
$GNRMC,143757.53,A,3022.02093498,N,9729.99796000,W,2.75,344.8,070319,,,*12
$GNGGA,143757.53,3022.02093498,N,9729.99796000,W,1,10,0.9,163.46,M,46.9,M,,*63
$GNRMC,143758.53,A,3022.02236802,N,9729.99841102,W,2.76,344.8,070319,,,*1A
$GNGGA,143758.53,3022.02236802,N,9729.99841102,W,1,10,0.9,163.50,M,46.9,M,,*6F
$GNRMC,143759.53,A,3022.02379998,N,9729.99886300,W,2.75,344.8,070319,,,*1B
$GNGGA,143759.53,3022.02379998,N,9729.99886300,W,1,10,0.9,163.54,M,46.9,M,,*69
$GNRMC,143800.53,A,3022.02523200,N,9729.99931402,W,2.75,344.8,070319,,,*13
$GNGGA,143800.53,3022.02523200,N,9729.99931402,W,1,10,0.9,163.58,M,46.9,M,,*6D
$GNRMC,143801.53,A,3022.02666402,N,9729.99976498,W,2.75,344.8,070319,,,*14
$GNGGA,143801.53,3022.02666402,N,9729.99976498,W,1,10,0.9,163.63,M,46.9,M,,*62
$GNRMC,143802.53,A,3022.02809598,N,9730.00021600,W,2.75,344.8,070319,,,*12
$GNGGA,143802.53,3022.02809598,N,9730.00021600,W,1,10,0.9,163.67,M,46.9,M,,*60
$GNRMC,143803.53,A,3022.02952800,N,9730.00066702,W,2.75,344.8,070319,,,*10
$GNGGA,143803.53,3022.02952800,N,9730.00066702,W,1,10,0.9,163.72,M,46.9,M,,*66
$GNRMC,143804.53,A,3022.03096002,N,9730.00111798,W,2.75,344.8,070319,,,*1F
$GNGGA,143804.53,3022.03096002,N,9730.00111798,W,1,10,0.9,163.77,M,46.9,M,,*6C
$GNRMC,143805.53,A,3022.03239198,N,9730.00157002,W,2.75,344.8,070319,,,*1D
$GNGGA,143805.53,3022.03239198,N,9730.00157002,W,1,10,0.9,163.82,M,46.9,M,,*64
$GNRMC,143806.53,A,3022.03382400,N,9730.00202098,W,2.75,344.8,070319,,,*1B
$GNGGA,143806.53,3022.03382400,N,9730.00202098,W,1,10,0.9,163.86,M,46.9,M,,*66
$GNRMC,143807.53,A,3022.03525698,N,9730.00247200,W,2.75,344.8,070319,,,*10
$GNGGA,143807.53,3022.03525698,N,9730.00247200,W,1,10,0.9,163.91,M,46.9,M,,*6B
$GNRMC,143808.53,A,3022.03668900,N,9730.00292302,W,2.75,344.8,070319,,,*10
$GNGGA,143808.53,3022.03668900,N,9730.00292302,W,1,10,0.9,163.96,M,46.9,M,,*6C
$GNRMC,143809.53,A,3022.03812102,N,9730.00337398,W,2.75,344.8,070319,,,*15
$GNGGA,143809.53,3022.03812102,N,9730.00337398,W,1,10,0.9,164.01,M,46.9,M,,*60
$GNRMC,143810.53,A,3022.03955298,N,9730.00382602,W,2.75,344.8,070319,,,*17
$GNGGA,143810.53,3022.03955298,N,9730.00382602,W,1,10,0.9,164.06,M,46.9,M,,*65
$GNRMC,143811.53,A,3022.04098500,N,9730.00427698,W,2.75,344.8,070319,,,*14
$GNGGA,143811.53,3022.04098500,N,9730.00427698,W,1,10,0.9,164.11,M,46.9,M,,*60
$GNRMC,143812.53,A,3022.04241702,N,9730.00472800,W,2.75,344.8,070319,,,*1E
$GNGGA,143812.53,3022.04241702,N,9730.00472800,W,1,10,0.9,164.15,M,46.9,M,,*6E
$GNRMC,143813.53,A,3022.04384898,N,9730.00517902,W,2.75,344.8,070319,,,*1A
$GNGGA,143813.53,3022.04384898,N,9730.00517902,W,1,10,0.9,164.18,M,46.9,M,,*67
$GNRMC,143814.53,A,3022.04528100,N,9730.00562998,W,2.75,344.8,070319,,,*14
$GNGGA,143814.53,3022.04528100,N,9730.00562998,W,1,10,0.9,164.21,M,46.9,M,,*63
$GNRMC,143815.53,A,3022.04671302,N,9730.00608100,W,2.75,344.8,070319,,,*1C
$GNGGA,143815.53,3022.04671302,N,9730.00608100,W,1,10,0.9,164.24,M,46.9,M,,*6E
$GNRMC,143816.53,A,3022.04814600,N,9730.00653298,W,2.76,344.8,070319,,,*1A
$GNGGA,143816.53,3022.04814600,N,9730.00653298,W,1,10,0.9,164.26,M,46.9,M,,*69
$GNRMC,143817.53,A,3022.04957802,N,9730.00698400,W,2.75,344.8,070319,,,*12
$GNGGA,143817.53,3022.04957802,N,9730.00698400,W,1,10,0.9,164.29,M,46.9,M,,*6D
$GNRMC,143818.53,A,3022.05100998,N,9730.00743502,W,2.75,344.8,070319,,,*10
$GNGGA,143818.53,3022.05100998,N,9730.00743502,W,1,10,0.9,164.32,M,46.9,M,,*65
$GNRMC,143819.53,A,3022.05244200,N,9730.00788598,W,2.75,344.8,070319,,,*1C
$GNGGA,143819.53,3022.05244200,N,9730.00788598,W,1,10,0.9,164.35,M,46.9,M,,*6E
$GNRMC,143820.53,A,3022.05387402,N,9730.00833700,W,2.75,344.8,070319,,,*10
$GNGGA,143820.53,3022.05387402,N,9730.00833700,W,1,10,0.9,164.37,M,46.9,M,,*60
$GNRMC,143821.53,A,3022.05530598,N,9730.00878898,W,2.75,344.8,070319,,,*18
$GNGGA,143821.53,3022.05530598,N,9730.00878898,W,1,10,0.9,164.40,M,46.9,M,,*68
$GNRMC,143822.53,A,3022.05673800,N,9730.00924000,W,2.75,344.8,070319,,,*12
$GNGGA,143822.53,3022.05673800,N,9730.00924000,W,1,10,0.9,164.42,M,46.9,M,,*60
$GNRMC,143823.53,A,3022.05817002,N,9730.00969102,W,2.75,344.8,070319,,,*1F
$GNGGA,143823.53,3022.05817002,N,9730.00969102,W,1,10,0.9,164.44,M,46.9,M,,*6B
$GNRMC,143824.53,A,3022.05960198,N,9730.01014198,W,2.75,344.8,070319,,,*1A
$GNGGA,143824.53,3022.05960198,N,9730.01014198,W,1,10,0.9,164.47,M,46.9,M,,*6D
$GNRMC,143825.53,A,3022.06103502,N,9730.01059300,W,2.76,344.8,070319,,,*1B
$GNGGA,143825.53,3022.06103502,N,9730.01059300,W,1,10,0.9,164.49,M,46.9,M,,*61
$GNRMC,143826.53,A,3022.06246698,N,9730.01104402,W,2.75,344.8,070319,,,*15
$GNGGA,143826.53,3022.06246698,N,9730.01104402,W,1,10,0.9,164.52,M,46.9,M,,*66
$GNRMC,143827.53,A,3022.06389900,N,9730.01149600,W,2.75,344.8,070319,,,*11
$GNGGA,143827.53,3022.06389900,N,9730.01149600,W,1,10,0.9,164.54,M,46.9,M,,*64
$GNRMC,143828.53,A,3022.06533102,N,9730.01194702,W,2.75,344.8,070319,,,*10
$GNGGA,143828.53,3022.06533102,N,9730.01194702,W,1,10,0.9,164.56,M,46.9,M,,*67
$GNRMC,143829.53,A,3022.06676298,N,9730.01239798,W,2.75,344.8,070319,,,*14
$GNGGA,143829.53,3022.06676298,N,9730.01239798,W,1,10,0.9,164.59,M,46.9,M,,*6C
$GNRMC,143830.53,A,3022.06819500,N,9730.01284900,W,2.75,344.8,070319,,,*14
$GNGGA,143830.53,3022.06819500,N,9730.01284900,W,1,10,0.9,164.61,M,46.9,M,,*67
$GNRMC,143831.53,A,3022.06962702,N,9730.01330002,W,2.75,344.8,070319,,,*1D
$GNGGA,143831.53,3022.06962702,N,9730.01330002,W,1,10,0.9,164.62,M,46.9,M,,*6D
$GNRMC,143832.53,A,3022.07105898,N,9730.01375098,W,2.75,344.8,070319,,,*18
$GNGGA,143832.53,3022.07105898,N,9730.01375098,W,1,10,0.9,164.64,M,46.9,M,,*6E
$GNRMC,143833.53,A,3022.07249100,N,9730.01420302,W,2.75,344.8,070319,,,*1D
$GNGGA,143833.53,3022.07249100,N,9730.01420302,W,1,10,0.9,164.66,M,46.9,M,,*69
$GNRMC,143834.53,A,3022.07392398,N,9730.01465398,W,2.75,344.8,070319,,,*1C
$GNGGA,143834.53,3022.07392398,N,9730.01465398,W,1,10,0.9,164.67,M,46.9,M,,*69
$GNRMC,143835.53,A,3022.07535600,N,9730.01510500,W,2.75,344.8,070319,,,*16
$GNGGA,143835.53,3022.07535600,N,9730.01510500,W,1,10,0.9,164.69,M,46.9,M,,*6D
$GNRMC,143836.53,A,3022.07678802,N,9730.01555602,W,2.75,344.8,070319,,,*13
$GNGGA,143836.53,3022.07678802,N,9730.01555602,W,1,10,0.9,164.71,M,46.9,M,,*61
$GNRMC,143837.53,A,3022.07821998,N,9730.01600698,W,2.75,344.8,070319,,,*12
$GNGGA,143837.53,3022.07821998,N,9730.01600698,W,1,10,0.9,164.73,M,46.9,M,,*62
$GNRMC,143838.53,A,3022.07965200,N,9730.01645902,W,2.75,344.8,070319,,,*1B
$GNGGA,143838.53,3022.07965200,N,9730.01645902,W,1,10,0.9,164.75,M,46.9,M,,*6D
$GNRMC,143839.53,A,3022.08108402,N,9730.01690998,W,2.75,344.8,070319,,,*19
$GNGGA,143839.53,3022.08108402,N,9730.01690998,W,1,10,0.9,164.78,M,46.9,M,,*62
$GNRMC,143840.53,A,3022.08251598,N,9730.01736100,W,2.75,344.8,070319,,,*1E
$GNGGA,143840.53,3022.08251598,N,9730.01736100,W,1,10,0.9,164.80,M,46.9,M,,*62
$GNRMC,143841.53,A,3022.08394800,N,9730.01781202,W,2.75,344.8,070319,,,*16
$GNGGA,143841.53,3022.08394800,N,9730.01781202,W,1,10,0.9,164.82,M,46.9,M,,*68
$GNRMC,143842.53,A,3022.08538002,N,9730.01826298,W,2.75,344.8,070319,,,*1E
$GNGGA,143842.53,3022.08538002,N,9730.01826298,W,1,10,0.9,164.84,M,46.9,M,,*66
$GNRMC,143843.53,A,3022.08681300,N,9730.01871400,W,2.75,344.8,070319,,,*1A
$GNGGA,143843.53,3022.08681300,N,9730.01871400,W,1,10,0.9,164.87,M,46.9,M,,*61
$GNRMC,143844.53,A,3022.08824502,N,9730.01916598,W,2.75,344.8,070319,,,*18
$GNGGA,143844.53,3022.08824502,N,9730.01916598,W,1,10,0.9,164.89,M,46.9,M,,*6D
$GNRMC,143845.53,A,3022.08967698,N,9730.01961700,W,2.75,344.8,070319,,,*1C
$GNGGA,143845.53,3022.08967698,N,9730.01961700,W,1,10,0.9,164.91,M,46.9,M,,*60
$GNRMC,143846.53,A,3022.09110900,N,9730.02006802,W,2.75,344.8,070319,,,*1E
$GNGGA,143846.53,3022.09110900,N,9730.02006802,W,1,10,0.9,164.93,M,46.9,M,,*60
$GNRMC,143847.53,A,3022.09254102,N,9730.02051898,W,2.75,344.8,070319,,,*17
$GNGGA,143847.53,3022.09254102,N,9730.02051898,W,1,10,0.9,164.97,M,46.9,M,,*6D
$GNRMC,143848.53,A,3022.09397298,N,9730.02097000,W,2.75,344.8,070319,,,*15
$GNGGA,143848.53,3022.09397298,N,9730.02097000,W,1,10,0.9,165.03,M,46.9,M,,*63
$GNRMC,143849.53,A,3022.09540500,N,9730.02142198,W,2.75,344.8,070319,,,*17
$GNGGA,143849.53,3022.09540500,N,9730.02142198,W,1,10,0.9,165.08,M,46.9,M,,*6A
$GNRMC,143850.53,A,3022.09683702,N,9730.02187300,W,2.75,344.8,070319,,,*19
$GNGGA,143850.53,3022.09683702,N,9730.02187300,W,1,10,0.9,165.14,M,46.9,M,,*69
$GNRMC,143851.53,A,3022.09826898,N,9730.02232402,W,2.75,344.8,070319,,,*1D
$GNGGA,143851.53,3022.09826898,N,9730.02232402,W,1,10,0.9,165.19,M,46.9,M,,*60
$GNRMC,143852.53,A,3022.09970202,N,9730.02277498,W,2.75,344.8,070319,,,*17
$GNGGA,143852.53,3022.09970202,N,9730.02277498,W,1,10,0.9,165.25,M,46.9,M,,*65
$GNRMC,143853.53,A,3022.10113398,N,9730.02322600,W,2.75,344.8,070319,,,*13
$GNGGA,143853.53,3022.10113398,N,9730.02322600,W,1,10,0.9,165.31,M,46.9,M,,*64
$GNRMC,143854.53,A,3022.10256600,N,9730.02367702,W,2.75,344.8,070319,,,*10
$GNGGA,143854.53,3022.10256600,N,9730.02367702,W,1,10,0.9,165.37,M,46.9,M,,*61
$GNRMC,143855.53,A,3022.10399802,N,9730.02412900,W,2.75,344.8,070319,,,*16
$GNGGA,143855.53,3022.10399802,N,9730.02412900,W,1,10,0.9,165.43,M,46.9,M,,*64
$GNRMC,143856.53,A,3022.10542998,N,9730.02458002,W,2.75,344.8,070319,,,*12
$GNGGA,143856.53,3022.10542998,N,9730.02458002,W,1,10,0.9,165.49,M,46.9,M,,*6A
$GNRMC,143857.53,A,3022.10686200,N,9730.02503098,W,2.75,344.8,070319,,,*1E
$GNGGA,143857.53,3022.10686200,N,9730.02503098,W,1,10,0.9,165.55,M,46.9,M,,*6B
$GNRMC,143858.53,A,3022.10829402,N,9730.02548200,W,2.75,344.8,070319,,,*12
$GNGGA,143858.53,3022.10829402,N,9730.02548200,W,1,10,0.9,165.61,M,46.9,M,,*60
$GNRMC,143859.53,A,3022.10972598,N,9730.02593302,W,2.75,344.8,070319,,,*1B
$GNGGA,143859.53,3022.10972598,N,9730.02593302,W,1,10,0.9,165.67,M,46.9,M,,*6F
$GNRMC,143900.53,A,3022.11115800,N,9730.02638398,W,2.75,344.8,070319,,,*13
$GNGGA,143900.53,3022.11115800,N,9730.02638398,W,1,10,0.9,165.74,M,46.9,M,,*65
$GNRMC,143901.53,A,3022.11259098,N,9730.02683602,W,2.76,344.8,070319,,,*15
$GNGGA,143901.53,3022.11259098,N,9730.02683602,W,1,10,0.9,165.80,M,46.9,M,,*6B
$GNRMC,143902.53,A,3022.11402300,N,9730.02728698,W,2.75,344.8,070319,,,*1C
$GNGGA,143902.53,3022.11402300,N,9730.02728698,W,1,10,0.9,165.86,M,46.9,M,,*67
$GNRMC,143903.53,A,3022.11545502,N,9730.02773800,W,2.75,344.8,070319,,,*1A
$GNGGA,143903.53,3022.11545502,N,9730.02773800,W,1,10,0.9,165.93,M,46.9,M,,*65
$GNRMC,143904.53,A,3022.11688698,N,9730.02818902,W,2.75,344.8,070319,,,*1E
$GNGGA,143904.53,3022.11688698,N,9730.02818902,W,1,10,0.9,165.99,M,46.9,M,,*6B
$GNRMC,143905.53,A,3022.11831900,N,9730.02863998,W,2.75,344.8,070319,,,*12
$GNGGA,143905.53,3022.11831900,N,9730.02863998,W,1,10,0.9,166.06,M,46.9,M,,*62
$GNRMC,143906.53,A,3022.11975102,N,9730.02909202,W,2.75,344.8,070319,,,*1F
$GNGGA,143906.53,3022.11975102,N,9730.02909202,W,1,10,0.9,166.13,M,46.9,M,,*6B
$GNRMC,143907.53,A,3022.12118298,N,9730.02954298,W,2.75,344.8,070319,,,*15
$GNGGA,143907.53,3022.12118298,N,9730.02954298,W,1,10,0.9,166.19,M,46.9,M,,*6B
$GNRMC,143908.53,A,3022.12261500,N,9730.02999400,W,2.75,344.8,070319,,,*17
$GNGGA,143908.53,3022.12261500,N,9730.02999400,W,1,10,0.9,166.26,M,46.9,M,,*65
$GNRMC,143909.53,A,3022.12404702,N,9730.03044502,W,2.75,344.8,070319,,,*18
$GNGGA,143909.53,3022.12404702,N,9730.03044502,W,1,10,0.9,166.33,M,46.9,M,,*6E
$GNRMC,143910.53,A,3022.12548000,N,9730.03089598,W,2.75,344.8,070319,,,*1E
$GNGGA,143910.53,3022.12548000,N,9730.03089598,W,1,10,0.9,166.40,M,46.9,M,,*6C
$GNRMC,143911.53,A,3022.12691202,N,9730.03134700,W,2.75,344.8,070319,,,*1C
$GNGGA,143911.53,3022.12691202,N,9730.03134700,W,1,10,0.9,166.47,M,46.9,M,,*69
$GNRMC,143912.53,A,3022.12834398,N,9730.03179898,W,2.75,344.8,070319,,,*1B
$GNGGA,143912.53,3022.12834398,N,9730.03179898,W,1,10,0.9,166.55,M,46.9,M,,*6D
$GNRMC,143913.53,A,3022.12977600,N,9730.03225000,W,2.75,344.8,070319,,,*1B
$GNGGA,143913.53,3022.12977600,N,9730.03225000,W,1,10,0.9,166.62,M,46.9,M,,*69
$GNRMC,143914.53,A,3022.13120802,N,9730.03270102,W,2.75,344.8,070319,,,*18
$GNGGA,143914.53,3022.13120802,N,9730.03270102,W,1,10,0.9,166.69,M,46.9,M,,*61
$GNRMC,143915.53,A,3022.13263998,N,9730.03315198,W,2.75,344.8,070319,,,*1E
$GNGGA,143915.53,3022.13263998,N,9730.03315198,W,1,10,0.9,166.77,M,46.9,M,,*68
$GNRMC,143916.53,A,3022.13407200,N,9730.03360300,W,2.75,344.8,070319,,,*12
$GNGGA,143916.53,3022.13407200,N,9730.03360300,W,1,10,0.9,166.84,M,46.9,M,,*68
$GNRMC,143917.53,A,3022.13550402,N,9730.03405498,W,2.75,344.8,070319,,,*16
$GNGGA,143917.53,3022.13550402,N,9730.03405498,W,1,10,0.9,166.91,M,46.9,M,,*68
$GNRMC,143918.53,A,3022.13693598,N,9730.03450600,W,2.75,344.8,070319,,,*14
$GNGGA,143918.53,3022.13693598,N,9730.03450600,W,1,10,0.9,166.98,M,46.9,M,,*63
$GNRMC,143919.53,A,3022.13836902,N,9730.03495702,W,2.76,344.8,070319,,,*12
$GNGGA,143919.53,3022.13836902,N,9730.03495702,W,1,10,0.9,167.04,M,46.9,M,,*62
$GNRMC,143920.53,A,3022.13980098,N,9730.03540798,W,2.75,344.8,070319,,,*17
$GNGGA,143920.53,3022.13980098,N,9730.03540798,W,1,10,0.9,167.11,M,46.9,M,,*60
$GNRMC,143921.53,A,3022.14123300,N,9730.03585900,W,2.75,344.8,070319,,,*14
$GNGGA,143921.53,3022.14123300,N,9730.03585900,W,1,10,0.9,167.18,M,46.9,M,,*6A
$GNRMC,143922.53,A,3022.14266502,N,9730.03631002,W,2.75,344.8,070319,,,*16
$GNGGA,143922.53,3022.14266502,N,9730.03631002,W,1,10,0.9,167.24,M,46.9,M,,*67
$GNRMC,143923.53,A,3022.14409698,N,9730.03676200,W,2.75,344.8,070319,,,*1B
$GNGGA,143923.53,3022.14409698,N,9730.03676200,W,1,10,0.9,167.31,M,46.9,M,,*6E
$GNRMC,143924.53,A,3022.14552900,N,9730.03721302,W,2.75,344.8,070319,,,*1D
$GNGGA,143924.53,3022.14552900,N,9730.03721302,W,1,10,0.9,167.37,M,46.9,M,,*6E
$GNRMC,143925.53,A,3022.14696102,N,9730.03766398,W,2.75,344.8,070319,,,*1D
$GNGGA,143925.53,3022.14696102,N,9730.03766398,W,1,10,0.9,167.44,M,46.9,M,,*6A
$GNRMC,143926.53,A,3022.14839298,N,9730.03811500,W,2.75,344.8,070319,,,*1D
$GNGGA,143926.53,3022.14839298,N,9730.03811500,W,1,10,0.9,167.50,M,46.9,M,,*6F
$GNRMC,143927.53,A,3022.14982500,N,9730.03856602,W,2.75,344.8,070319,,,*19
$GNGGA,143927.53,3022.14982500,N,9730.03856602,W,1,10,0.9,167.57,M,46.9,M,,*6C
$GNRMC,143928.53,A,3022.15125798,N,9730.03901698,W,2.75,344.8,070319,,,*11
$GNGGA,143928.53,3022.15125798,N,9730.03901698,W,1,10,0.9,167.64,M,46.9,M,,*64
$GNRMC,143929.53,A,3022.15269000,N,9730.03946902,W,2.75,344.8,070319,,,*12
$GNGGA,143929.53,3022.15269000,N,9730.03946902,W,1,10,0.9,167.71,M,46.9,M,,*63
$GNRMC,143930.53,A,3022.15412202,N,9730.03991998,W,2.75,344.8,070319,,,*19
$GNGGA,143930.53,3022.15412202,N,9730.03991998,W,1,10,0.9,167.78,M,46.9,M,,*61
$GNRMC,143931.53,A,3022.15555398,N,9730.04037100,W,2.75,344.8,070319,,,*13
$GNGGA,143931.53,3022.15555398,N,9730.04037100,W,1,10,0.9,167.85,M,46.9,M,,*69
$GNRMC,143932.53,A,3022.15698600,N,9730.04082202,W,2.75,344.8,070319,,,*19
$GNGGA,143932.53,3022.15698600,N,9730.04082202,W,1,10,0.9,167.92,M,46.9,M,,*65
$GNRMC,143933.53,A,3022.15841802,N,9730.04127298,W,2.75,344.8,070319,,,*13
$GNGGA,143933.53,3022.15841802,N,9730.04127298,W,1,10,0.9,167.99,M,46.9,M,,*64
$GNRMC,143934.53,A,3022.15984998,N,9730.04172502,W,2.75,344.8,070319,,,*1A
$GNGGA,143934.53,3022.15984998,N,9730.04172502,W,1,10,0.9,168.06,M,46.9,M,,*64
$GNRMC,143935.53,A,3022.16128200,N,9730.04217598,W,2.75,344.8,070319,,,*1F
$GNGGA,143935.53,3022.16128200,N,9730.04217598,W,1,10,0.9,168.12,M,46.9,M,,*64
$GNRMC,143936.53,A,3022.16271402,N,9730.04262700,W,2.75,344.8,070319,,,*16
$GNGGA,143936.53,3022.16271402,N,9730.04262700,W,1,10,0.9,168.18,M,46.9,M,,*67
$GNRMC,143937.53,A,3022.16414700,N,9730.04307802,W,2.75,344.8,070319,,,*1C
$GNGGA,143937.53,3022.16414700,N,9730.04307802,W,1,10,0.9,168.24,M,46.9,M,,*62
$GNRMC,143938.53,A,3022.16557902,N,9730.04352898,W,2.75,344.8,070319,,,*1A
$GNGGA,143938.53,3022.16557902,N,9730.04352898,W,1,10,0.9,168.30,M,46.9,M,,*61
$GNRMC,143939.53,A,3022.16701098,N,9730.04398000,W,2.75,344.8,070319,,,*1F
$GNGGA,143939.53,3022.16701098,N,9730.04398000,W,1,10,0.9,168.36,M,46.9,M,,*62
$GNRMC,143940.53,A,3022.16844300,N,9730.04443198,W,2.75,344.8,070319,,,*1C
$GNGGA,143940.53,3022.16844300,N,9730.04443198,W,1,10,0.9,168.42,M,46.9,M,,*62
$GNRMC,143941.53,A,3022.16987502,N,9730.04488300,W,2.75,344.8,070319,,,*13
$GNGGA,143941.53,3022.16987502,N,9730.04488300,W,1,10,0.9,168.49,M,46.9,M,,*66
$GNRMC,143942.53,A,3022.17130698,N,9730.04533402,W,2.75,344.8,070319,,,*11
$GNGGA,143942.53,3022.17130698,N,9730.04533402,W,1,10,0.9,168.55,M,46.9,M,,*69
$GNRMC,143943.53,A,3022.17273900,N,9730.04578498,W,2.75,344.8,070319,,,*16
$GNGGA,143943.53,3022.17273900,N,9730.04578498,W,1,10,0.9,168.61,M,46.9,M,,*69
$GNRMC,143944.53,A,3022.17417102,N,9730.04623600,W,2.75,344.8,070319,,,*11
$GNGGA,143944.53,3022.17417102,N,9730.04623600,W,1,10,0.9,168.68,M,46.9,M,,*67
$GNRMC,143945.53,A,3022.17560400,N,9730.04668798,W,2.76,344.8,070319,,,*1A
$GNGGA,143945.53,3022.17560400,N,9730.04668798,W,1,10,0.9,168.75,M,46.9,M,,*63
$GNRMC,143946.53,A,3022.17703602,N,9730.04713900,W,2.75,344.8,070319,,,*1F
$GNGGA,143946.53,3022.17703602,N,9730.04713900,W,1,10,0.9,168.82,M,46.9,M,,*6D
$GNRMC,143947.53,A,3022.17846798,N,9730.04759002,W,2.75,344.8,070319,,,*17
$GNGGA,143947.53,3022.17846798,N,9730.04759002,W,1,10,0.9,168.89,M,46.9,M,,*6E
$GNRMC,143948.53,A,3022.17990000,N,9730.04804098,W,2.75,344.8,070319,,,*10
$GNGGA,143948.53,3022.17990000,N,9730.04804098,W,1,10,0.9,168.97,M,46.9,M,,*66
$GNRMC,143949.53,A,3022.18133202,N,9730.04849200,W,2.75,344.8,070319,,,*15
$GNGGA,143949.53,3022.18133202,N,9730.04849200,W,1,10,0.9,169.04,M,46.9,M,,*68
$GNRMC,143950.53,A,3022.18276398,N,9730.04894302,W,2.75,344.8,070319,,,*1E
$GNGGA,143950.53,3022.18276398,N,9730.04894302,W,1,10,0.9,169.11,M,46.9,M,,*67
$GNRMC,143951.53,A,3022.18419600,N,9730.04939500,W,2.75,344.8,070319,,,*16
$GNGGA,143951.53,3022.18419600,N,9730.04939500,W,1,10,0.9,169.18,M,46.9,M,,*66
$GNRMC,143952.53,A,3022.18562802,N,9730.04984602,W,2.75,344.8,070319,,,*13
$GNGGA,143952.53,3022.18562802,N,9730.04984602,W,1,10,0.9,169.24,M,46.9,M,,*6C
$GNRMC,143953.53,A,3022.18705998,N,9730.05029698,W,2.75,344.8,070319,,,*1F
$GNGGA,143953.53,3022.18705998,N,9730.05029698,W,1,10,0.9,169.31,M,46.9,M,,*64
$GNRMC,143954.53,A,3022.18849302,N,9730.05074800,W,2.76,344.8,070319,,,*12
$GNGGA,143954.53,3022.18849302,N,9730.05074800,W,1,10,0.9,169.38,M,46.9,M,,*63
$GNRMC,143955.53,A,3022.18992498,N,9730.05119902,W,2.75,344.8,070319,,,*1A
$GNGGA,143955.53,3022.18992498,N,9730.05119902,W,1,10,0.9,169.44,M,46.9,M,,*63
$GNRMC,143956.53,A,3022.19135700,N,9730.05164998,W,2.75,344.8,070319,,,*16
$GNGGA,143956.53,3022.19135700,N,9730.05164998,W,1,10,0.9,169.51,M,46.9,M,,*6B
$GNRMC,143957.53,A,3022.19278902,N,9730.05210202,W,2.75,344.8,070319,,,*19
$GNGGA,143957.53,3022.19278902,N,9730.05210202,W,1,10,0.9,169.57,M,46.9,M,,*62
$GNRMC,143958.53,A,3022.19422098,N,9730.05255298,W,2.75,344.8,070319,,,*17
$GNGGA,143958.53,3022.19422098,N,9730.05255298,W,1,10,0.9,169.62,M,46.9,M,,*6A
$GNRMC,143959.53,A,3022.19565300,N,9730.05300400,W,2.75,344.8,070319,,,*10
$GNGGA,143959.53,3022.19565300,N,9730.05300400,W,1,10,0.9,169.68,M,46.9,M,,*67
$GNRMC,144000.53,A,3022.19708502,N,9730.05345502,W,2.75,344.8,070319,,,*1D
$GNGGA,144000.53,3022.19708502,N,9730.05345502,W,1,10,0.9,169.74,M,46.9,M,,*67
$GNRMC,144001.53,A,3022.19851698,N,9730.05390598,W,2.75,344.8,070319,,,*14
$GNGGA,144001.53,3022.19851698,N,9730.05390598,W,1,10,0.9,169.79,M,46.9,M,,*63
$GNRMC,144002.53,A,3022.19994900,N,9730.05435802,W,2.75,344.8,070319,,,*17
$GNGGA,144002.53,3022.19994900,N,9730.05435802,W,1,10,0.9,169.85,M,46.9,M,,*63
$GNRMC,144003.53,A,3022.20138198,N,9730.05480898,W,2.75,344.8,070319,,,*16
$GNGGA,144003.53,3022.20138198,N,9730.05480898,W,1,10,0.9,169.91,M,46.9,M,,*67
$GNRMC,144004.53,A,3022.20281400,N,9730.05526000,W,2.75,344.8,070319,,,*10
$GNGGA,144004.53,3022.20281400,N,9730.05526000,W,1,10,0.9,169.96,M,46.9,M,,*66
$GNRMC,144005.53,A,3022.20424602,N,9730.05571102,W,2.75,344.8,070319,,,*19
$GNGGA,144005.53,3022.20424602,N,9730.05571102,W,1,10,0.9,170.02,M,46.9,M,,*6A
$GNRMC,144006.53,A,3022.20567798,N,9730.05616198,W,2.75,344.8,070319,,,*1F
$GNGGA,144006.53,3022.20567798,N,9730.05616198,W,1,10,0.9,170.08,M,46.9,M,,*66
$GNRMC,144007.53,A,3022.20711000,N,9730.05661300,W,2.75,344.8,070319,,,*18
$GNGGA,144007.53,3022.20711000,N,9730.05661300,W,1,10,0.9,170.13,M,46.9,M,,*6B
$GNRMC,144008.53,A,3022.20854202,N,9730.05706498,W,2.75,344.8,070319,,,*1F
$GNGGA,144008.53,3022.20854202,N,9730.05706498,W,1,10,0.9,170.19,M,46.9,M,,*66
$GNRMC,144009.53,A,3022.20997398,N,9730.05751600,W,2.75,344.8,070319,,,*13
$GNGGA,144009.53,3022.20997398,N,9730.05751600,W,1,10,0.9,170.20,M,46.9,M,,*60
$GNRMC,144010.53,A,3022.21140600,N,9730.05796702,W,2.75,344.8,070319,,,*14
$GNGGA,144010.53,3022.21140600,N,9730.05796702,W,1,10,0.9,170.21,M,46.9,M,,*66
$GNRMC,144011.53,A,3022.21283802,N,9730.05841798,W,2.75,344.8,070319,,,*13
$GNGGA,144011.53,3022.21283802,N,9730.05841798,W,1,10,0.9,170.23,M,46.9,M,,*63
$GNRMC,144012.53,A,3022.21427100,N,9730.05886900,W,2.75,344.8,070319,,,*17
$GNGGA,144012.53,3022.21427100,N,9730.05886900,W,1,10,0.9,170.23,M,46.9,M,,*67
$GNRMC,144013.53,A,3022.21570302,N,9730.05932098,W,2.75,344.8,070319,,,*13
$GNGGA,144013.53,3022.21570302,N,9730.05932098,W,1,10,0.9,170.24,M,46.9,M,,*64
$GNRMC,144014.53,A,3022.21713498,N,9730.05977200,W,2.75,344.8,070319,,,*15
$GNGGA,144014.53,3022.21713498,N,9730.05977200,W,1,10,0.9,170.25,M,46.9,M,,*63
$GNRMC,144015.53,A,3022.21856700,N,9730.06022302,W,2.75,344.8,070319,,,*11
$GNGGA,144015.53,3022.21856700,N,9730.06022302,W,1,10,0.9,170.26,M,46.9,M,,*64
$GNRMC,144016.53,A,3022.21999902,N,9730.06067398,W,2.75,344.8,070319,,,*1E
$GNGGA,144016.53,3022.21999902,N,9730.06067398,W,1,10,0.9,170.27,M,46.9,M,,*6A
$GNRMC,144017.53,A,3022.22143098,N,9730.06112500,W,2.75,344.8,070319,,,*1D
$GNGGA,144017.53,3022.22143098,N,9730.06112500,W,1,10,0.9,170.28,M,46.9,M,,*66
$GNRMC,144018.53,A,3022.22286300,N,9730.06157602,W,2.75,344.8,070319,,,*1A
$GNGGA,144018.53,3022.22286300,N,9730.06157602,W,1,10,0.9,170.28,M,46.9,M,,*61
$GNRMC,144019.53,A,3022.22429502,N,9730.06202800,W,2.75,344.8,070319,,,*13
$GNGGA,144019.53,3022.22429502,N,9730.06202800,W,1,10,0.9,170.29,M,46.9,M,,*69
$GNRMC,144020.53,A,3022.22572698,N,9730.06247902,W,2.75,344.8,070319,,,*14
$GNGGA,144020.53,3022.22572698,N,9730.06247902,W,1,10,0.9,170.30,M,46.9,M,,*66
$GNRMC,144021.53,A,3022.22716002,N,9730.06292998,W,2.75,344.8,070319,,,*1B
$GNGGA,144021.53,3022.22716002,N,9730.06292998,W,1,10,0.9,170.29,M,46.9,M,,*61
$GNRMC,144022.53,A,3022.22859198,N,9730.06338100,W,2.75,344.8,070319,,,*16
$GNGGA,144022.53,3022.22859198,N,9730.06338100,W,1,10,0.9,170.28,M,46.9,M,,*6D
$GNRMC,144023.53,A,3022.23002400,N,9730.06383202,W,2.75,344.8,070319,,,*15
$GNGGA,144023.53,3022.23002400,N,9730.06383202,W,1,10,0.9,170.27,M,46.9,M,,*61
$GNRMC,144024.53,A,3022.23145602,N,9730.06428298,W,2.75,344.8,070319,,,*15
$GNGGA,144024.53,3022.23145602,N,9730.06428298,W,1,10,0.9,170.26,M,46.9,M,,*60
$GNRMC,144025.53,A,3022.23288798,N,9730.06473502,W,2.75,344.8,070319,,,*1E
$GNGGA,144025.53,3022.23288798,N,9730.06473502,W,1,10,0.9,170.25,M,46.9,M,,*68
$GNRMC,144026.53,A,3022.23432000,N,9730.06518598,W,2.75,344.8,070319,,,*13
$GNGGA,144026.53,3022.23432000,N,9730.06518598,W,1,10,0.9,170.24,M,46.9,M,,*64
$GNRMC,144027.53,A,3022.23575202,N,9730.06563700,W,2.75,344.8,070319,,,*1F
$GNGGA,144027.53,3022.23575202,N,9730.06563700,W,1,10,0.9,170.24,M,46.9,M,,*68
$GNRMC,144028.53,A,3022.23718398,N,9730.06608802,W,2.75,344.8,070319,,,*18
$GNGGA,144028.53,3022.23718398,N,9730.06608802,W,1,10,0.9,170.23,M,46.9,M,,*68
$GNRMC,144029.53,A,3022.23861600,N,9730.06653898,W,2.75,344.8,070319,,,*11
$GNGGA,144029.53,3022.23861600,N,9730.06653898,W,1,10,0.9,170.22,M,46.9,M,,*60
$GNRMC,144030.53,A,3022.24004898,N,9730.06699102,W,2.76,344.8,070319,,,*15
$GNGGA,144030.53,3022.24004898,N,9730.06699102,W,1,10,0.9,170.21,M,46.9,M,,*64
$GNRMC,144031.53,A,3022.24148100,N,9730.06744198,W,2.75,344.8,070319,,,*14
$GNGGA,144031.53,3022.24148100,N,9730.06744198,W,1,10,0.9,170.20,M,46.9,M,,*67
$GNRMC,144032.53,A,3022.24291302,N,9730.06789300,W,2.75,344.8,070319,,,*12
$GNGGA,144032.53,3022.24291302,N,9730.06789300,W,1,10,0.9,170.19,M,46.9,M,,*6B
$GNRMC,144033.53,A,3022.24434498,N,9730.06834402,W,2.75,344.8,070319,,,*12
$GNGGA,144033.53,3022.24434498,N,9730.06834402,W,1,10,0.9,170.18,M,46.9,M,,*6A
$GNRMC,144034.53,A,3022.24577700,N,9730.06879498,W,2.75,344.8,070319,,,*1B
$GNGGA,144034.53,3022.24577700,N,9730.06879498,W,1,10,0.9,170.18,M,46.9,M,,*63
$GNRMC,144035.53,A,3022.24720902,N,9730.06924600,W,2.75,344.8,070319,,,*1C
$GNGGA,144035.53,3022.24720902,N,9730.06924600,W,1,10,0.9,170.17,M,46.9,M,,*6B
$GNRMC,144036.53,A,3022.24864098,N,9730.06969798,W,2.75,344.8,070319,,,*13
$GNGGA,144036.53,3022.24864098,N,9730.06969798,W,1,10,0.9,170.16,M,46.9,M,,*65
$GNRMC,144037.53,A,3022.25007300,N,9730.07014900,W,2.75,344.8,070319,,,*11
$GNGGA,144037.53,3022.25007300,N,9730.07014900,W,1,10,0.9,170.15,M,46.9,M,,*64
$GNRMC,144038.53,A,3022.25150502,N,9730.07060002,W,2.75,344.8,070319,,,*11
$GNGGA,144038.53,3022.25150502,N,9730.07060002,W,1,10,0.9,170.14,M,46.9,M,,*65
$GNRMC,144039.53,A,3022.25293800,N,9730.07105098,W,2.75,344.8,070319,,,*12
$GNGGA,144039.53,3022.25293800,N,9730.07105098,W,1,10,0.9,170.13,M,46.9,M,,*61
$GNRMC,144040.53,A,3022.25437002,N,9730.07150200,W,2.75,344.8,070319,,,*1D
$GNGGA,144040.53,3022.25437002,N,9730.07150200,W,1,10,0.9,170.12,M,46.9,M,,*6F
$GNRMC,144041.53,A,3022.25580198,N,9730.07195398,W,2.75,344.8,070319,,,*1A
$GNGGA,144041.53,3022.25580198,N,9730.07195398,W,1,10,0.9,170.12,M,46.9,M,,*68
$GNRMC,144042.53,A,3022.25723400,N,9730.07240500,W,2.75,344.8,070319,,,*1A
$GNGGA,144042.53,3022.25723400,N,9730.07240500,W,1,10,0.9,170.11,M,46.9,M,,*6B
$GNRMC,144043.53,A,3022.25866602,N,9730.07285602,W,2.75,344.8,070319,,,*1D
$GNGGA,144043.53,3022.25866602,N,9730.07285602,W,1,10,0.9,170.10,M,46.9,M,,*6D
$GNRMC,144044.53,A,3022.26009798,N,9730.07330698,W,2.75,344.8,070319,,,*16
$GNGGA,144044.53,3022.26009798,N,9730.07330698,W,1,10,0.9,170.08,M,46.9,M,,*6F
$GNRMC,144045.53,A,3022.26153000,N,9730.07375800,W,2.75,344.8,070319,,,*11
$GNGGA,144045.53,3022.26153000,N,9730.07375800,W,1,10,0.9,170.06,M,46.9,M,,*66
$GNRMC,144046.53,A,3022.26296202,N,9730.07420902,W,2.75,344.8,070319,,,*1C
$GNGGA,144046.53,3022.26296202,N,9730.07420902,W,1,10,0.9,170.04,M,46.9,M,,*69
$GNRMC,144047.53,A,3022.26439398,N,9730.07466100,W,2.75,344.8,070319,,,*14
$GNGGA,144047.53,3022.26439398,N,9730.07466100,W,1,10,0.9,170.03,M,46.9,M,,*66
$GNRMC,144048.53,A,3022.26582702,N,9730.07511202,W,2.76,344.8,070319,,,*1E
$GNGGA,144048.53,3022.26582702,N,9730.07511202,W,1,10,0.9,170.01,M,46.9,M,,*6D
$GNRMC,144049.53,A,3022.26725898,N,9730.07556298,W,2.75,344.8,070319,,,*1F
$GNGGA,144049.53,3022.26725898,N,9730.07556298,W,1,10,0.9,169.99,M,46.9,M,,*66
$GNRMC,144050.53,A,3022.26869100,N,9730.07601400,W,2.75,344.8,070319,,,*1E
$GNGGA,144050.53,3022.26869100,N,9730.07601400,W,1,10,0.9,169.97,M,46.9,M,,*69
$GNRMC,144051.53,A,3022.27012302,N,9730.07646502,W,2.75,344.8,070319,,,*1A
$GNGGA,144051.53,3022.27012302,N,9730.07646502,W,1,10,0.9,169.95,M,46.9,M,,*6F
$GNRMC,144052.53,A,3022.27155498,N,9730.07691598,W,2.75,344.8,070319,,,*16
$GNGGA,144052.53,3022.27155498,N,9730.07691598,W,1,10,0.9,169.93,M,46.9,M,,*65
$GNRMC,144053.53,A,3022.27298700,N,9730.07736802,W,2.75,344.8,070319,,,*15
$GNGGA,144053.53,3022.27298700,N,9730.07736802,W,1,10,0.9,169.91,M,46.9,M,,*64
$GNRMC,144054.53,A,3022.27441902,N,9730.07781898,W,2.75,344.8,070319,,,*13
$GNGGA,144054.53,3022.27441902,N,9730.07781898,W,1,10,0.9,169.89,M,46.9,M,,*6B
$GNRMC,144055.53,A,3022.27585098,N,9730.07827000,W,2.75,344.8,070319,,,*1B
$GNGGA,144055.53,3022.27585098,N,9730.07827000,W,1,10,0.9,169.87,M,46.9,M,,*6D
$GNRMC,144056.53,A,3022.27728300,N,9730.07872102,W,2.75,344.8,070319,,,*1C
$GNGGA,144056.53,3022.27728300,N,9730.07872102,W,1,10,0.9,169.85,M,46.9,M,,*68
$GNRMC,144057.53,A,3022.27871598,N,9730.07917198,W,2.75,344.8,070319,,,*18
$GNGGA,144057.53,3022.27871598,N,9730.07917198,W,1,10,0.9,169.83,M,46.9,M,,*6A
$GNRMC,144058.53,A,3022.28014800,N,9730.07962402,W,2.75,344.8,070319,,,*1B
$GNGGA,144058.53,3022.28014800,N,9730.07962402,W,1,10,0.9,169.81,M,46.9,M,,*6B
$GNRMC,144059.53,A,3022.28158002,N,9730.08007498,W,2.75,344.8,070319,,,*1F
$GNGGA,144059.53,3022.28158002,N,9730.08007498,W,1,10,0.9,169.79,M,46.9,M,,*68
$GNRMC,144100.53,A,3022.28301198,N,9730.08052600,W,2.75,344.8,070319,,,*1D
$GNGGA,144100.53,3022.28301198,N,9730.08052600,W,1,10,0.9,169.77,M,46.9,M,,*64
$GNRMC,144101.53,A,3022.28444400,N,9730.08097702,W,2.75,344.8,070319,,,*14
$GNGGA,144101.53,3022.28444400,N,9730.08097702,W,1,10,0.9,169.75,M,46.9,M,,*6F
$GNRMC,144102.53,A,3022.28587602,N,9730.08142798,W,2.75,344.8,070319,,,*13
$GNGGA,144102.53,3022.28587602,N,9730.08142798,W,1,10,0.9,169.73,M,46.9,M,,*6E
$GNRMC,144103.53,A,3022.28730798,N,9730.08187900,W,2.75,344.8,070319,,,*18
$GNGGA,144103.53,3022.28730798,N,9730.08187900,W,1,10,0.9,169.71,M,46.9,M,,*67
$GNRMC,144104.53,A,3022.28874000,N,9730.08233098,W,2.75,344.8,070319,,,*12
$GNGGA,144104.53,3022.28874000,N,9730.08233098,W,1,10,0.9,169.69,M,46.9,M,,*64
$GNRMC,144105.53,A,3022.29017202,N,9730.08278200,W,2.75,344.8,070319,,,*13
$GNGGA,144105.53,3022.29017202,N,9730.08278200,W,1,10,0.9,169.67,M,46.9,M,,*6B
$GNRMC,144106.53,A,3022.29160500,N,9730.08323302,W,2.75,344.8,070319,,,*18
$GNGGA,144106.53,3022.29160500,N,9730.08323302,W,1,10,0.9,169.65,M,46.9,M,,*62
$GNRMC,144107.53,A,3022.29303702,N,9730.08368398,W,2.75,344.8,070319,,,*12
$GNGGA,144107.53,3022.29303702,N,9730.08368398,W,1,10,0.9,169.64,M,46.9,M,,*69
$GNRMC,144108.53,A,3022.29446898,N,9730.08413500,W,2.75,344.8,070319,,,*1B
$GNGGA,144108.53,3022.29446898,N,9730.08413500,W,1,10,0.9,169.63,M,46.9,M,,*67
$GNRMC,144109.53,A,3022.29590100,N,9730.08458698,W,2.75,344.8,070319,,,*15
$GNGGA,144109.53,3022.29590100,N,9730.08458698,W,1,10,0.9,169.62,M,46.9,M,,*68
$GNRMC,144110.53,A,3022.29733302,N,9730.08503800,W,2.75,344.8,070319,,,*16
$GNGGA,144110.53,3022.29733302,N,9730.08503800,W,1,10,0.9,169.61,M,46.9,M,,*68
$GNRMC,144111.53,A,3022.29876498,N,9730.08548902,W,2.75,344.8,070319,,,*11
$GNGGA,144111.53,3022.29876498,N,9730.08548902,W,1,10,0.9,169.59,M,46.9,M,,*64
$GNRMC,144112.53,A,3022.30019700,N,9730.08593998,W,2.75,344.8,070319,,,*1C
$GNGGA,144112.53,3022.30019700,N,9730.08593998,W,1,10,0.9,169.58,M,46.9,M,,*68
$GNRMC,144113.53,A,3022.30162902,N,9730.08639100,W,2.75,344.8,070319,,,*16
$GNGGA,144113.53,3022.30162902,N,9730.08639100,W,1,10,0.9,169.57,M,46.9,M,,*6D
$GNRMC,144114.53,A,3022.30306098,N,9730.08684202,W,2.75,344.8,070319,,,*1C
$GNGGA,144114.53,3022.30306098,N,9730.08684202,W,1,10,0.9,169.56,M,46.9,M,,*66
$GNRMC,144115.53,A,3022.30449402,N,9730.08729400,W,2.76,344.8,070319,,,*17
$GNGGA,144115.53,3022.30449402,N,9730.08729400,W,1,10,0.9,169.55,M,46.9,M,,*6D
$GNRMC,144116.53,A,3022.30592598,N,9730.08774502,W,2.75,344.8,070319,,,*19
$GNGGA,144116.53,3022.30592598,N,9730.08774502,W,1,10,0.9,169.54,M,46.9,M,,*61
$GNRMC,144117.53,A,3022.30735800,N,9730.08819598,W,2.75,344.8,070319,,,*1C
$GNGGA,144117.53,3022.30735800,N,9730.08819598,W,1,10,0.9,169.53,M,46.9,M,,*63
$GNRMC,144118.53,A,3022.30879002,N,9730.08864700,W,2.75,344.8,070319,,,*17
$GNGGA,144118.53,3022.30879002,N,9730.08864700,W,1,10,0.9,169.51,M,46.9,M,,*6A
$GNRMC,144119.53,A,3022.31022198,N,9730.08909802,W,2.75,344.8,070319,,,*14
$GNGGA,144119.53,3022.31022198,N,9730.08909802,W,1,10,0.9,169.48,M,46.9,M,,*61
$GNRMC,144120.53,A,3022.31165400,N,9730.08954898,W,2.75,344.8,070319,,,*13
$GNGGA,144120.53,3022.31165400,N,9730.08954898,W,1,10,0.9,169.46,M,46.9,M,,*68
$GNRMC,144121.53,A,3022.31308602,N,9730.09000102,W,2.75,344.8,070319,,,*18
$GNGGA,144121.53,3022.31308602,N,9730.09000102,W,1,10,0.9,169.43,M,46.9,M,,*66
$GNRMC,144122.53,A,3022.31451798,N,9730.09045198,W,2.75,344.8,070319,,,*10
$GNGGA,144122.53,3022.31451798,N,9730.09045198,W,1,10,0.9,169.40,M,46.9,M,,*6D
$GNRMC,144123.53,A,3022.31595000,N,9730.09090300,W,2.75,344.8,070319,,,*15
$GNGGA,144123.53,3022.31595000,N,9730.09090300,W,1,10,0.9,169.37,M,46.9,M,,*68
$GNRMC,144124.53,A,3022.31738298,N,9730.09135402,W,2.75,344.8,070319,,,*1F
$GNGGA,144124.53,3022.31738298,N,9730.09135402,W,1,10,0.9,169.34,M,46.9,M,,*61
$GNRMC,144125.53,A,3022.31881500,N,9730.09180498,W,2.75,344.8,070319,,,*18
$GNGGA,144125.53,3022.31881500,N,9730.09180498,W,1,10,0.9,169.31,M,46.9,M,,*63
$GNRMC,144126.53,A,3022.32024702,N,9730.09225702,W,2.75,344.8,070319,,,*13
$GNGGA,144126.53,3022.32024702,N,9730.09225702,W,1,10,0.9,169.28,M,46.9,M,,*60
$GNRMC,144127.53,A,3022.32167898,N,9730.09270798,W,2.75,344.8,070319,,,*1B
$GNGGA,144127.53,3022.32167898,N,9730.09270798,W,1,10,0.9,169.26,M,46.9,M,,*66
$GNRMC,144128.53,A,3022.32311100,N,9730.09315900,W,2.75,344.8,070319,,,*12
$GNGGA,144128.53,3022.32311100,N,9730.09315900,W,1,10,0.9,169.23,M,46.9,M,,*6A
$GNRMC,144129.53,A,3022.32454302,N,9730.09361002,W,2.75,344.8,070319,,,*1D
$GNGGA,144129.53,3022.32454302,N,9730.09361002,W,1,10,0.9,169.21,M,46.9,M,,*67
$GNRMC,144130.53,A,3022.32597498,N,9730.09406098,W,2.75,344.8,070319,,,*1A
$GNGGA,144130.53,3022.32597498,N,9730.09406098,W,1,10,0.9,169.20,M,46.9,M,,*61
$GNRMC,144131.53,A,3022.32740700,N,9730.09451200,W,2.75,344.8,070319,,,*10
$GNGGA,144131.53,3022.32740700,N,9730.09451200,W,1,10,0.9,169.20,M,46.9,M,,*6B
$GNRMC,144132.53,A,3022.32883902,N,9730.09496398,W,2.75,344.8,070319,,,*14
$GNGGA,144132.53,3022.32883902,N,9730.09496398,W,1,10,0.9,169.19,M,46.9,M,,*65
$GNRMC,144133.53,A,3022.33027200,N,9730.09541500,W,2.75,344.8,070319,,,*17
$GNGGA,144133.53,3022.33027200,N,9730.09541500,W,1,10,0.9,169.19,M,46.9,M,,*66
$GNRMC,144134.53,A,3022.33170402,N,9730.09586602,W,2.75,344.8,070319,,,*1D
$GNGGA,144134.53,3022.33170402,N,9730.09586602,W,1,10,0.9,169.19,M,46.9,M,,*6C
$GNRMC,144135.53,A,3022.33313598,N,9730.09631698,W,2.75,344.8,070319,,,*15
$GNGGA,144135.53,3022.33313598,N,9730.09631698,W,1,10,0.9,169.19,M,46.9,M,,*64
$GNRMC,144136.53,A,3022.33456800,N,9730.09676800,W,2.75,344.8,070319,,,*10
$GNGGA,144136.53,3022.33456800,N,9730.09676800,W,1,10,0.9,169.18,M,46.9,M,,*60
$GNRMC,144137.53,A,3022.33600002,N,9730.09721998,W,2.75,344.8,070319,,,*19
$GNGGA,144137.53,3022.33600002,N,9730.09721998,W,1,10,0.9,169.18,M,46.9,M,,*69
$GNRMC,144138.53,A,3022.33743198,N,9730.09767100,W,2.75,344.8,070319,,,*19
$GNGGA,144138.53,3022.33743198,N,9730.09767100,W,1,10,0.9,169.17,M,46.9,M,,*66
$GNRMC,144139.53,A,3022.33886400,N,9730.09812202,W,2.75,344.8,070319,,,*16
$GNGGA,144139.53,3022.33886400,N,9730.09812202,W,1,10,0.9,169.17,M,46.9,M,,*69
$GNRMC,144140.53,A,3022.34029602,N,9730.09857298,W,2.75,344.8,070319,,,*10
$GNGGA,144140.53,3022.34029602,N,9730.09857298,W,1,10,0.9,169.16,M,46.9,M,,*6E
$GNRMC,144141.53,A,3022.34172798,N,9730.09902400,W,2.75,344.8,070319,,,*1A
$GNGGA,144141.53,3022.34172798,N,9730.09902400,W,1,10,0.9,169.16,M,46.9,M,,*64
$GNRMC,144142.53,A,3022.34316102,N,9730.09947502,W,2.76,344.8,070319,,,*1D
$GNGGA,144142.53,3022.34316102,N,9730.09947502,W,1,10,0.9,169.14,M,46.9,M,,*62
$GNRMC,144143.53,A,3022.34459298,N,9730.09992700,W,2.75,344.8,070319,,,*1B
$GNGGA,144143.53,3022.34459298,N,9730.09992700,W,1,10,0.9,169.12,M,46.9,M,,*61
$GNRMC,144144.53,A,3022.34602500,N,9730.10037802,W,2.75,344.8,070319,,,*15
$GNGGA,144144.53,3022.34602500,N,9730.10037802,W,1,10,0.9,169.11,M,46.9,M,,*6C
$GNRMC,144145.53,A,3022.34745702,N,9730.10082898,W,2.75,344.8,070319,,,*1B
$GNGGA,144145.53,3022.34745702,N,9730.10082898,W,1,10,0.9,169.09,M,46.9,M,,*6B
$GNRMC,144146.53,A,3022.34888898,N,9730.10128000,W,2.75,344.8,070319,,,*12
$GNGGA,144146.53,3022.34888898,N,9730.10128000,W,1,10,0.9,169.08,M,46.9,M,,*63
$GNRMC,144147.53,A,3022.35032100,N,9730.10173102,W,2.75,344.8,070319,,,*1E
$GNGGA,144147.53,3022.35032100,N,9730.10173102,W,1,10,0.9,169.07,M,46.9,M,,*60
$GNRMC,144148.53,A,3022.35175302,N,9730.10218198,W,2.75,344.8,070319,,,*1E
$GNGGA,144148.53,3022.35175302,N,9730.10218198,W,1,10,0.9,169.05,M,46.9,M,,*62
$GNRMC,144149.53,A,3022.35318498,N,9730.10263402,W,2.75,344.8,070319,,,*18
$GNGGA,144149.53,3022.35318498,N,9730.10263402,W,1,10,0.9,169.04,M,46.9,M,,*65
$GNRMC,144150.53,A,3022.35461700,N,9730.10308498,W,2.75,344.8,070319,,,*14
$GNGGA,144150.53,3022.35461700,N,9730.10308498,W,1,10,0.9,169.03,M,46.9,M,,*6E
$GNRMC,144151.53,A,3022.35604998,N,9730.10353600,W,2.75,344.8,070319,,,*16
$GNGGA,144151.53,3022.35604998,N,9730.10353600,W,1,10,0.9,169.02,M,46.9,M,,*6D
$GNRMC,144152.53,A,3022.35748200,N,9730.10398702,W,2.75,344.8,070319,,,*12
$GNGGA,144152.53,3022.35748200,N,9730.10398702,W,1,10,0.9,169.01,M,46.9,M,,*6A
$GNRMC,144153.53,A,3022.35891402,N,9730.10443798,W,2.75,344.8,070319,,,*1E
$GNGGA,144153.53,3022.35891402,N,9730.10443798,W,1,10,0.9,169.00,M,46.9,M,,*67
$GNRMC,144154.53,A,3022.36034598,N,9730.10489002,W,2.75,344.8,070319,,,*1D
$GNGGA,144154.53,3022.36034598,N,9730.10489002,W,1,10,0.9,168.99,M,46.9,M,,*65
$GNRMC,144155.53,A,3022.36177800,N,9730.10534098,W,2.75,344.8,070319,,,*12
$GNGGA,144155.53,3022.36177800,N,9730.10534098,W,1,10,0.9,168.98,M,46.9,M,,*6B
$GNRMC,144156.53,A,3022.36321002,N,9730.10579200,W,2.75,344.8,070319,,,*10
$GNGGA,144156.53,3022.36321002,N,9730.10579200,W,1,10,0.9,168.97,M,46.9,M,,*66
$GNRMC,144157.53,A,3022.36464198,N,9730.10624302,W,2.75,344.8,070319,,,*1D
$GNGGA,144157.53,3022.36464198,N,9730.10624302,W,1,10,0.9,168.97,M,46.9,M,,*6B
$GNRMC,144158.53,A,3022.36607400,N,9730.10669398,W,2.75,344.8,070319,,,*1B
$GNGGA,144158.53,3022.36607400,N,9730.10669398,W,1,10,0.9,168.96,M,46.9,M,,*6C
$GNRMC,144159.53,A,3022.36750698,N,9730.10714500,W,2.75,344.8,070319,,,*16
$GNGGA,144159.53,3022.36750698,N,9730.10714500,W,1,10,0.9,168.95,M,46.9,M,,*62
$GNRMC,144200.53,A,3022.36893900,N,9730.10759698,W,2.75,344.8,070319,,,*1C
$GNGGA,144200.53,3022.36893900,N,9730.10759698,W,1,10,0.9,168.94,M,46.9,M,,*69
$GNRMC,144201.53,A,3022.37037102,N,9730.10804800,W,2.75,344.8,070319,,,*18
$GNGGA,144201.53,3022.37037102,N,9730.10804800,W,1,10,0.9,168.93,M,46.9,M,,*6A
$GNRMC,144202.53,A,3022.37180298,N,9730.10849902,W,2.75,344.8,070319,,,*1C
$GNGGA,144202.53,3022.37180298,N,9730.10849902,W,1,10,0.9,168.92,M,46.9,M,,*6F
$GNRMC,144203.53,A,3022.37323500,N,9730.10894998,W,2.75,344.8,070319,,,*13
$GNGGA,144203.53,3022.37323500,N,9730.10894998,W,1,10,0.9,168.91,M,46.9,M,,*63
$GNRMC,144204.53,A,3022.37466702,N,9730.10940100,W,2.75,344.8,070319,,,*13
$GNGGA,144204.53,3022.37466702,N,9730.10940100,W,1,10,0.9,168.90,M,46.9,M,,*62
$GNRMC,144205.53,A,3022.37609898,N,9730.10985298,W,2.75,344.8,070319,,,*1E
$GNGGA,144205.53,3022.37609898,N,9730.10985298,W,1,10,0.9,168.88,M,46.9,M,,*66
$GNRMC,144206.53,A,3022.37753100,N,9730.11030400,W,2.75,344.8,070319,,,*1A
$GNGGA,144206.53,3022.37753100,N,9730.11030400,W,1,10,0.9,168.85,M,46.9,M,,*6F
$GNRMC,144207.53,A,3022.37896302,N,9730.11075502,W,2.75,344.8,070319,,,*1F
$GNGGA,144207.53,3022.37896302,N,9730.11075502,W,1,10,0.9,168.83,M,46.9,M,,*6C
$GNRMC,144208.53,A,3022.38039600,N,9730.11120598,W,2.75,344.8,070319,,,*17
$GNGGA,144208.53,3022.38039600,N,9730.11120598,W,1,10,0.9,168.81,M,46.9,M,,*66
$GNRMC,144209.53,A,3022.38182802,N,9730.11165700,W,2.75,344.8,070319,,,*19
$GNGGA,144209.53,3022.38182802,N,9730.11165700,W,1,10,0.9,168.78,M,46.9,M,,*6E
$GNRMC,144210.53,A,3022.38325998,N,9730.11210802,W,2.75,344.8,070319,,,*10
$GNGGA,144210.53,3022.38325998,N,9730.11210802,W,1,10,0.9,168.76,M,46.9,M,,*69
$GNRMC,144211.53,A,3022.38469200,N,9730.11256000,W,2.75,344.8,070319,,,*1C
$GNGGA,144211.53,3022.38469200,N,9730.11256000,W,1,10,0.9,168.73,M,46.9,M,,*60
$GNRMC,144212.53,A,3022.38612402,N,9730.11301102,W,2.75,344.8,070319,,,*15
$GNGGA,144212.53,3022.38612402,N,9730.11301102,W,1,10,0.9,168.70,M,46.9,M,,*6A
$GNRMC,144213.53,A,3022.38755598,N,9730.11346198,W,2.75,344.8,070319,,,*14
$GNGGA,144213.53,3022.38755598,N,9730.11346198,W,1,10,0.9,168.67,M,46.9,M,,*6D
$GNRMC,144214.53,A,3022.38898800,N,9730.11391300,W,2.75,344.8,070319,,,*18
$GNGGA,144214.53,3022.38898800,N,9730.11391300,W,1,10,0.9,168.64,M,46.9,M,,*62
$GNRMC,144215.53,A,3022.39042002,N,9730.11436402,W,2.75,344.8,070319,,,*12
$GNGGA,144215.53,3022.39042002,N,9730.11436402,W,1,10,0.9,168.61,M,46.9,M,,*6D
$GNRMC,144216.53,A,3022.39185198,N,9730.11481498,W,2.75,344.8,070319,,,*16
$GNGGA,144216.53,3022.39185198,N,9730.11481498,W,1,10,0.9,168.58,M,46.9,M,,*63
$GNRMC,144217.53,A,3022.39328502,N,9730.11526702,W,2.76,344.8,070319,,,*1A
$GNGGA,144217.53,3022.39328502,N,9730.11526702,W,1,10,0.9,168.54,M,46.9,M,,*60
$GNRMC,144218.53,A,3022.39471698,N,9730.11571798,W,2.75,344.8,070319,,,*1C
$GNGGA,144218.53,3022.39471698,N,9730.11571798,W,1,10,0.9,168.51,M,46.9,M,,*60
$GNRMC,144219.53,A,3022.39614900,N,9730.11616900,W,2.75,344.8,070319,,,*1F
$GNGGA,144219.53,3022.39614900,N,9730.11616900,W,1,10,0.9,168.48,M,46.9,M,,*6B
$GNRMC,144220.53,A,3022.39758102,N,9730.11662002,W,2.75,344.8,070319,,,*1E
$GNGGA,144220.53,3022.39758102,N,9730.11662002,W,1,10,0.9,168.44,M,46.9,M,,*66
$GNRMC,144221.53,A,3022.39901298,N,9730.11707098,W,2.75,344.8,070319,,,*1C
$GNGGA,144221.53,3022.39901298,N,9730.11707098,W,1,10,0.9,168.41,M,46.9,M,,*61
$GNRMC,144222.53,A,3022.40044500,N,9730.11752302,W,2.75,344.8,070319,,,*1F
$GNGGA,144222.53,3022.40044500,N,9730.11752302,W,1,10,0.9,168.38,M,46.9,M,,*6C
$GNRMC,144223.53,A,3022.40187702,N,9730.11797398,W,2.75,344.8,070319,,,*1A
$GNGGA,144223.53,3022.40187702,N,9730.11797398,W,1,10,0.9,168.35,M,46.9,M,,*64
$GNRMC,144224.53,A,3022.40330898,N,9730.11842500,W,2.75,344.8,070319,,,*1F
$GNGGA,144224.53,3022.40330898,N,9730.11842500,W,1,10,0.9,168.32,M,46.9,M,,*66
$GNRMC,144225.53,A,3022.40474100,N,9730.11887602,W,2.75,344.8,070319,,,*19
$GNGGA,144225.53,3022.40474100,N,9730.11887602,W,1,10,0.9,168.30,M,46.9,M,,*62
$GNRMC,144226.53,A,3022.40617398,N,9730.11932698,W,2.75,344.8,070319,,,*12
$GNGGA,144226.53,3022.40617398,N,9730.11932698,W,1,10,0.9,168.27,M,46.9,M,,*6F
$GNRMC,144227.53,A,3022.40760600,N,9730.11977800,W,2.75,344.8,070319,,,*18
$GNGGA,144227.53,3022.40760600,N,9730.11977800,W,1,10,0.9,168.24,M,46.9,M,,*66
$GNRMC,144228.53,A,3022.40903802,N,9730.12022998,W,2.75,344.8,070319,,,*1A
$GNGGA,144228.53,3022.40903802,N,9730.12022998,W,1,10,0.9,168.21,M,46.9,M,,*61
$GNRMC,144229.53,A,3022.41046998,N,9730.12068100,W,2.75,344.8,070319,,,*17
$GNGGA,144229.53,3022.41046998,N,9730.12068100,W,1,10,0.9,168.18,M,46.9,M,,*66
$GNRMC,144230.53,A,3022.41190200,N,9730.12113202,W,2.75,344.8,070319,,,*13
$GNGGA,144230.53,3022.41190200,N,9730.12113202,W,1,10,0.9,168.14,M,46.9,M,,*6E
$GNRMC,144231.53,A,3022.41333402,N,9730.12158298,W,2.75,344.8,070319,,,*11
$GNGGA,144231.53,3022.41333402,N,9730.12158298,W,1,10,0.9,168.11,M,46.9,M,,*69
$GNRMC,144232.53,A,3022.41476598,N,9730.12203400,W,2.75,344.8,070319,,,*1C
$GNGGA,144232.53,3022.41476598,N,9730.12203400,W,1,10,0.9,168.07,M,46.9,M,,*63
$GNRMC,144233.53,A,3022.41619800,N,9730.12248598,W,2.75,344.8,070319,,,*15
$GNGGA,144233.53,3022.41619800,N,9730.12248598,W,1,10,0.9,168.03,M,46.9,M,,*6E
$GNRMC,144234.53,A,3022.41763002,N,9730.12293700,W,2.75,344.8,070319,,,*11
$GNGGA,144234.53,3022.41763002,N,9730.12293700,W,1,10,0.9,168.00,M,46.9,M,,*69
$GNRMC,144235.53,A,3022.41906300,N,9730.12338802,W,2.75,344.8,070319,,,*11
$GNGGA,144235.53,3022.41906300,N,9730.12338802,W,1,10,0.9,167.96,M,46.9,M,,*69
$GNRMC,144236.53,A,3022.42049502,N,9730.12383898,W,2.75,344.8,070319,,,*14
$GNGGA,144236.53,3022.42049502,N,9730.12383898,W,1,10,0.9,167.92,M,46.9,M,,*68
$GNRMC,144237.53,A,3022.42192698,N,9730.12429000,W,2.75,344.8,070319,,,*1C
$GNGGA,144237.53,3022.42192698,N,9730.12429000,W,1,10,0.9,167.88,M,46.9,M,,*6B
$GNRMC,144238.53,A,3022.42335900,N,9730.12474102,W,2.75,344.8,070319,,,*19
$GNGGA,144238.53,3022.42335900,N,9730.12474102,W,1,10,0.9,167.84,M,46.9,M,,*62
$GNRMC,144239.53,A,3022.42479102,N,9730.12519300,W,2.75,344.8,070319,,,*17
$GNGGA,144239.53,3022.42479102,N,9730.12519300,W,1,10,0.9,167.80,M,46.9,M,,*68
$GNRMC,144240.53,A,3022.42622298,N,9730.12564402,W,2.75,344.8,070319,,,*1A
